[{"id":"DADIL","name":"DADIL","type":"WAYPOINT","lat":-2.41806,"lon":-70.58333,"description":"A301 - Boundary Point","createdAt":"2026-06-29T16:19:42.379Z","updatedAt":"2026-06-29T16:20:32.384Z"},{"id":"PAPEM","name":"PAPEM","type":"WAYPOINT","lat":-3.17806,"lon":-70.30472,"description":"A301 - Boundary Point","createdAt":"2026-06-29T16:19:42.380Z","updatedAt":"2026-06-29T16:20:32.404Z"},{"id":"ELAKO","name":"ELAKO","type":"WAYPOINT","lat":-15.92667,"lon":-69.305,"description":"A304, UM657","createdAt":"2026-06-29T16:19:42.381Z","updatedAt":"2026-06-29T16:20:32.389Z"},{"id":"KORBO","name":"KORBO","type":"WAYPOINT","lat":-3.01833,"lon":-77.85778,"description":"A566","createdAt":"2026-06-29T16:19:42.381Z","updatedAt":"2026-06-29T16:20:32.398Z"},{"id":"OSUBU","name":"OSUBU","type":"WAYPOINT","lat":-3.32889,"lon":-76.05194,"description":"A566, T234, UT234","createdAt":"2026-06-29T16:19:42.382Z","updatedAt":"2026-06-29T16:20:32.401Z"},{"id":"PABAM","name":"PABAM","type":"WAYPOINT","lat":-3.40361,"lon":-75.61361,"description":"A566, T232","createdAt":"2026-06-29T16:19:42.383Z","updatedAt":"2026-06-29T16:20:32.402Z"},{"id":"ISAPA","name":"ISAPA","type":"WAYPOINT","lat":-3.65389,"lon":-74.13944,"description":"A566","createdAt":"2026-06-29T16:19:42.384Z","updatedAt":"2026-06-29T16:20:32.395Z"},{"id":"SURIX","name":"SURIX","type":"WAYPOINT","lat":-3.89139,"lon":-72.48944,"description":"A566, UM665","createdAt":"2026-06-29T16:19:42.384Z","updatedAt":"2026-06-29T16:20:32.406Z"},{"id":"KALOR","name":"KALOR","type":"WAYPOINT","lat":-4.09583,"lon":-70.76694,"description":"A566","createdAt":"2026-06-29T16:19:42.385Z","updatedAt":"2026-06-29T16:20:32.396Z"},{"id":"DANKI","name":"DANKI","type":"WAYPOINT","lat":-18.30667,"lon":-70.275,"description":"A568, UM664","createdAt":"2026-06-29T16:19:42.385Z","updatedAt":"2026-06-29T16:20:32.386Z"},{"id":"LOLES","name":"LOLES","type":"WAYPOINT","lat":-17.9,"lon":-69.78333,"description":"A568, UM664 - Boundary Point","createdAt":"2026-06-29T16:19:42.386Z","updatedAt":"2026-06-29T16:20:32.399Z"},{"id":"ORALO","name":"ORALO","type":"WAYPOINT","lat":-17.29611,"lon":-69.625,"description":"A573, UM548, UP673","createdAt":"2026-06-29T16:19:42.386Z","updatedAt":"2026-06-29T16:20:32.400Z"},{"id":"KEBOM","name":"KEBOM","type":"WAYPOINT","lat":-8,"lon":-73.67778,"description":"B552 - Boundary Point","createdAt":"2026-06-29T16:19:42.387Z","updatedAt":"2026-06-29T16:20:32.396Z"},{"id":"PAGUR","name":"PAGUR","type":"WAYPOINT","lat":-4.47639,"lon":-80.36361,"description":"G675 - Boundary Point","createdAt":"2026-06-29T16:19:42.387Z","updatedAt":"2026-06-29T16:20:32.402Z"},{"id":"OGTAM","name":"OGTAM","type":"WAYPOINT","lat":-6.0525,"lon":-80.35278,"description":"G675","createdAt":"2026-06-29T16:19:42.388Z","updatedAt":"2026-06-29T16:20:32.400Z"},{"id":"KIBAN","name":"KIBAN","type":"WAYPOINT","lat":-6.89389,"lon":-80.01722,"description":"G675","createdAt":"2026-06-29T16:19:42.388Z","updatedAt":"2026-06-29T16:20:32.397Z"},{"id":"REPIB","name":"REPIB","type":"WAYPOINT","lat":-7.53333,"lon":-79.56667,"description":"G675","createdAt":"2026-06-29T16:19:42.389Z","updatedAt":"2026-06-29T16:20:32.405Z"},{"id":"ESMIL","name":"ESMIL","type":"WAYPOINT","lat":-8.81972,"lon":-78.70472,"description":"G675, V1","createdAt":"2026-06-29T16:19:42.389Z","updatedAt":"2026-06-29T16:20:32.391Z"},{"id":"ARPEN","name":"ARPEN","type":"WAYPOINT","lat":-2.38861,"lon":-72.12,"description":"R567 - Boundary Point","createdAt":"2026-06-29T16:19:42.390Z","updatedAt":"2026-06-29T16:20:32.377Z"},{"id":"AROTI","name":"AROTI","type":"WAYPOINT","lat":-3.66278,"lon":-70.58444,"description":"R567","createdAt":"2026-06-29T16:19:42.390Z","updatedAt":"2026-06-29T16:20:32.376Z"},{"id":"MOXOM","name":"MOXOM","type":"WAYPOINT","lat":-3.50083,"lon":-80.21861,"description":"UM659, V1 - Boundary Point","createdAt":"2026-06-29T16:19:42.391Z","updatedAt":"2026-06-29T16:20:32.407Z"},{"id":"DOMVO","name":"DOMVO","type":"WAYPOINT","lat":-4.25,"lon":-81.33333,"description":"UV1, V1","createdAt":"2026-06-29T16:19:42.392Z","updatedAt":"2026-06-29T16:20:32.387Z"},{"id":"CHIRA","name":"CHIRA","type":"WAYPOINT","lat":-4.93528,"lon":-80.89389,"description":"V1","createdAt":"2026-06-29T16:19:42.392Z","updatedAt":"2026-06-29T16:20:32.384Z"},{"id":"ROKOL","name":"ROKOL","type":"WAYPOINT","lat":-5.97722,"lon":-80.21083,"description":"V1","createdAt":"2026-06-29T16:19:42.393Z","updatedAt":"2026-06-29T16:20:32.405Z"},{"id":"PALOP","name":"PALOP","type":"WAYPOINT","lat":-7.46167,"lon":-79.43556,"description":"V1","createdAt":"2026-06-29T16:19:42.394Z","updatedAt":"2026-06-29T16:20:32.403Z"},{"id":"EGASI","name":"EGASI","type":"WAYPOINT","lat":-4.20806,"lon":-80.47944,"description":"V2","createdAt":"2026-06-29T16:19:42.395Z","updatedAt":"2026-06-29T16:20:32.388Z"},{"id":"DORAN","name":"DORAN","type":"WAYPOINT","lat":-4.18556,"lon":-74.05361,"description":"UV3, V3","createdAt":"2026-06-29T16:19:42.395Z","updatedAt":"2026-06-29T16:20:32.388Z"},{"id":"VUKOK","name":"VUKOK","type":"WAYPOINT","lat":-5.34333,"lon":-76.2325,"description":null,"createdAt":"2026-06-29T16:19:42.396Z","updatedAt":"2026-06-29T16:19:42.396Z"},{"id":"ATATU","name":"ATATU","type":"WAYPOINT","lat":-10.19694,"lon":-78.01056,"description":"UL308, UL312, UL344, UM674, UV1","createdAt":"2026-06-29T16:19:42.396Z","updatedAt":"2026-06-29T16:20:32.379Z"},{"id":"KALAR","name":"KALAR","type":"WAYPOINT","lat":-11.24611,"lon":-77.49722,"description":"T311, T327, UL308, UL342, UM674, UP776, UV1","createdAt":"2026-06-29T16:19:42.397Z","updatedAt":"2026-06-29T16:20:32.416Z"},{"id":"ROBIG","name":"ROBIG","type":"WAYPOINT","lat":-6.6925,"lon":-78.18528,"description":"UM674, UT330, UV4","createdAt":"2026-06-29T16:19:42.397Z","updatedAt":"2026-06-29T16:20:32.412Z"},{"id":"PUPMI","name":"PUPMI","type":"WAYPOINT","lat":-6.68,"lon":-77.48306,"description":null,"createdAt":"2026-06-29T16:19:42.398Z","updatedAt":"2026-06-29T16:19:42.398Z"},{"id":"LODIN","name":"LODIN","type":"WAYPOINT","lat":-7.40722,"lon":-75.57333,"description":"T311, UP776, UV4","createdAt":"2026-06-29T16:19:42.398Z","updatedAt":"2026-06-29T16:20:32.418Z"},{"id":"BORLA","name":"BORLA","type":"WAYPOINT","lat":-7.73722,"lon":-75.23639,"description":"T216, UM414, UV4, V4","createdAt":"2026-06-29T16:19:42.399Z","updatedAt":"2026-06-29T16:20:32.383Z"},{"id":"RONSO","name":"RONSO","type":"WAYPOINT","lat":-4.36778,"lon":-73.92333,"description":null,"createdAt":"2026-06-29T16:19:42.400Z","updatedAt":"2026-06-29T16:19:42.400Z"},{"id":"IKARO","name":"IKARO","type":"WAYPOINT","lat":-6.25722,"lon":-75.924,"description":"UV5, V5","createdAt":"2026-06-29T16:19:42.400Z","updatedAt":"2026-06-29T16:20:32.393Z"},{"id":"UTKIK","name":"UTKIK","type":"WAYPOINT","lat":-7.04528,"lon":-77.09417,"description":null,"createdAt":"2026-06-29T16:19:42.401Z","updatedAt":"2026-06-29T16:19:42.401Z"},{"id":"RELOR","name":"RELOR","type":"WAYPOINT","lat":-7.23333,"lon":-77.45639,"description":null,"createdAt":"2026-06-29T16:19:42.401Z","updatedAt":"2026-06-29T16:19:42.401Z"},{"id":"MANPA","name":"MANPA","type":"WAYPOINT","lat":-7.5875,"lon":-78.14111,"description":null,"createdAt":"2026-06-29T16:19:42.402Z","updatedAt":"2026-06-29T16:19:42.402Z"},{"id":"VATES","name":"VATES","type":"WAYPOINT","lat":-7.70333,"lon":-78.36556,"description":null,"createdAt":"2026-06-29T16:19:42.402Z","updatedAt":"2026-06-29T16:19:42.402Z"},{"id":"TAPIR","name":"TAPIR","type":"WAYPOINT","lat":-4.60028,"lon":-73.55306,"description":"UV9, V9","createdAt":"2026-06-29T16:19:42.403Z","updatedAt":"2026-06-29T16:20:32.414Z"},{"id":"FANES","name":"FANES","type":"WAYPOINT","lat":-7.48778,"lon":-74.3275,"description":"T335, UT335, UV9, V9","createdAt":"2026-06-29T16:19:42.403Z","updatedAt":"2026-06-29T16:20:32.392Z"},{"id":"TILPA","name":"TILPA","type":"WAYPOINT","lat":-13.69778,"lon":-72.88667,"description":null,"createdAt":"2026-06-29T16:19:42.404Z","updatedAt":"2026-06-29T16:19:42.404Z"},{"id":"ILMOX","name":"ILMOX","type":"WAYPOINT","lat":-14.59444,"lon":-70.84444,"description":null,"createdAt":"2026-06-29T16:19:42.404Z","updatedAt":"2026-06-29T16:19:42.404Z"},{"id":"CEMIL","name":"CEMIL","type":"WAYPOINT","lat":-13.23972,"lon":-70.64972,"description":null,"createdAt":"2026-06-29T16:19:42.405Z","updatedAt":"2026-06-29T16:19:42.405Z"},{"id":"ILMAR","name":"ILMAR","type":"WAYPOINT","lat":-14.27472,"lon":-76.51333,"description":"L302, UL302, UM542","createdAt":"2026-06-29T16:19:42.405Z","updatedAt":"2026-06-29T16:20:32.394Z"},{"id":"IREMI","name":"IREMI","type":"WAYPOINT","lat":-18.35,"lon":-75.38333,"description":null,"createdAt":"2026-06-29T16:19:42.406Z","updatedAt":"2026-06-29T16:19:42.406Z"},{"id":"ASOXI","name":"ASOXI","type":"WAYPOINT","lat":-12.76056,"lon":-76.60639,"description":"L525, T336, UL550, UM415, UM548, UM793, UT224, UT336","createdAt":"2026-06-29T16:19:42.406Z","updatedAt":"2026-06-29T16:20:32.377Z"},{"id":"ESIRA","name":"ESIRA","type":"WAYPOINT","lat":-14.90056,"lon":-74.97722,"description":null,"createdAt":"2026-06-29T16:19:42.407Z","updatedAt":"2026-06-29T16:19:42.407Z"},{"id":"ISOKI","name":"ISOKI","type":"WAYPOINT","lat":-16.24361,"lon":-73.57861,"description":null,"createdAt":"2026-06-29T16:19:42.407Z","updatedAt":"2026-06-29T16:19:42.407Z"},{"id":"MIGEB","name":"MIGEB","type":"WAYPOINT","lat":-17.22556,"lon":-72.075,"description":null,"createdAt":"2026-06-29T16:19:42.408Z","updatedAt":"2026-06-29T16:19:42.408Z"},{"id":"MAJAZ","name":"MAJAZ","type":"WAYPOINT","lat":-4.54556,"lon":-73.68167,"description":null,"createdAt":"2026-06-29T16:19:42.408Z","updatedAt":"2026-06-29T16:19:42.408Z"},{"id":"IBARE","name":"IBARE","type":"WAYPOINT","lat":-9.29639,"lon":-76.00472,"description":"T216, T325, T327, UM414, UT327","createdAt":"2026-06-29T16:19:42.409Z","updatedAt":"2026-06-29T16:20:32.393Z"},{"id":"KONTA","name":"KONTA","type":"WAYPOINT","lat":-12.10306,"lon":-76.19222,"description":null,"createdAt":"2026-06-29T16:19:42.410Z","updatedAt":"2026-06-29T16:19:42.410Z"},{"id":"ILPIP","name":"ILPIP","type":"WAYPOINT","lat":-12.11361,"lon":-76.0225,"description":null,"createdAt":"2026-06-29T16:19:42.411Z","updatedAt":"2026-06-29T16:19:42.411Z"},{"id":"LOKEB","name":"LOKEB","type":"WAYPOINT","lat":-12.13417,"lon":-75.68278,"description":null,"createdAt":"2026-06-29T16:19:42.412Z","updatedAt":"2026-06-29T16:19:42.412Z"},{"id":"BODET","name":"BODET","type":"WAYPOINT","lat":-12.23528,"lon":-73.90083,"description":"T218, UT218","createdAt":"2026-06-29T16:19:42.412Z","updatedAt":"2026-06-29T16:20:32.380Z"},{"id":"ANKUG","name":"ANKUG","type":"WAYPOINT","lat":-12.38361,"lon":-72.16,"description":"T218, T335, UT218, UT335","createdAt":"2026-06-29T16:19:42.413Z","updatedAt":"2026-06-29T16:20:32.375Z"},{"id":"ETEBA","name":"ETEBA","type":"WAYPOINT","lat":-12.42944,"lon":-71.59556,"description":null,"createdAt":"2026-06-29T16:19:42.413Z","updatedAt":"2026-06-29T16:19:42.413Z"},{"id":"ANBON","name":"ANBON","type":"WAYPOINT","lat":-12.54667,"lon":-70.01028,"description":"T218, UT218","createdAt":"2026-06-29T16:19:42.414Z","updatedAt":"2026-06-29T16:20:32.374Z"},{"id":"ASEMO","name":"ASEMO","type":"WAYPOINT","lat":-11.68889,"lon":-73.4175,"description":null,"createdAt":"2026-06-29T16:19:42.415Z","updatedAt":"2026-06-29T16:19:42.415Z"},{"id":"OGNUM","name":"OGNUM","type":"WAYPOINT","lat":-11.67361,"lon":-73.95611,"description":null,"createdAt":"2026-06-29T16:19:42.415Z","updatedAt":"2026-06-29T16:19:42.415Z"},{"id":"MONKU","name":"MONKU","type":"WAYPOINT","lat":-11.76194,"lon":-75.9075,"description":null,"createdAt":"2026-06-29T16:19:42.416Z","updatedAt":"2026-06-29T16:19:42.416Z"},{"id":"ALDAL","name":"ALDAL","type":"WAYPOINT","lat":-11.77611,"lon":-76.24722,"description":"T226, UT226","createdAt":"2026-06-29T16:19:42.416Z","updatedAt":"2026-06-29T16:20:32.371Z"},{"id":"KUSKU","name":"KUSKU","type":"WAYPOINT","lat":-6.01917,"lon":-77.51472,"description":null,"createdAt":"2026-06-29T16:19:42.417Z","updatedAt":"2026-06-29T16:19:42.417Z"},{"id":"AKSOL","name":"AKSOL","type":"WAYPOINT","lat":-13.32972,"lon":-75.7625,"description":"UM548, UM793, UT222","createdAt":"2026-06-29T16:19:42.417Z","updatedAt":"2026-06-29T16:20:32.368Z"},{"id":"ALDAX","name":"ALDAX","type":"WAYPOINT","lat":-18.35,"lon":-72.47222,"description":null,"createdAt":"2026-06-29T16:19:42.418Z","updatedAt":"2026-06-29T16:19:42.418Z"},{"id":"AMERO","name":"AMERO","type":"WAYPOINT","lat":-3.4,"lon":-83.76667,"description":"UL344","createdAt":"2026-06-29T16:19:42.418Z","updatedAt":"2026-06-29T16:20:32.372Z"},{"id":"AMVEX","name":"AMVEX","type":"WAYPOINT","lat":-10.80056,"lon":-76.80333,"description":"UL305, UM414","createdAt":"2026-06-29T16:19:42.419Z","updatedAt":"2026-06-29T16:20:32.373Z"},{"id":"ANBIS","name":"ANBIS","type":"WAYPOINT","lat":-10.21833,"lon":-76.20306,"description":"T325","createdAt":"2026-06-29T16:19:42.420Z","updatedAt":"2026-06-29T16:20:32.373Z"},{"id":"ANDID","name":"ANDID","type":"WAYPOINT","lat":-2.43056,"lon":-75.31889,"description":"UL342, UM776","createdAt":"2026-06-29T16:19:42.420Z","updatedAt":"2026-06-29T16:20:32.375Z"},{"id":"ANPAL","name":"ANPAL","type":"WAYPOINT","lat":-3.4,"lon":-83.00333,"description":null,"createdAt":"2026-06-29T16:19:42.421Z","updatedAt":"2026-06-29T16:19:42.421Z"},{"id":"ARNEL","name":"ARNEL","type":"WAYPOINT","lat":-3.4,"lon":-81.58333,"description":null,"createdAt":"2026-06-29T16:19:42.422Z","updatedAt":"2026-06-29T16:19:42.422Z"},{"id":"ASBOB","name":"ASBOB","type":"WAYPOINT","lat":-9.44194,"lon":-73.47083,"description":null,"createdAt":"2026-06-29T16:19:42.422Z","updatedAt":"2026-06-29T16:19:42.422Z"},{"id":"ASOLA","name":"ASOLA","type":"WAYPOINT","lat":-9.795,"lon":-70.97333,"description":null,"createdAt":"2026-06-29T16:19:42.423Z","updatedAt":"2026-06-29T16:19:42.423Z"},{"id":"BOBUG","name":"BOBUG","type":"WAYPOINT","lat":-8.15611,"lon":-78.11278,"description":"UM674","createdAt":"2026-06-29T16:19:42.423Z","updatedAt":"2026-06-29T16:20:32.379Z"},{"id":"COCOS","name":"COCOS","type":"WAYPOINT","lat":-8.87639,"lon":-75.34917,"description":null,"createdAt":"2026-06-29T16:19:42.424Z","updatedAt":"2026-06-29T16:19:42.424Z"},{"id":"DALGI","name":"DALGI","type":"WAYPOINT","lat":-9.7075,"lon":-75.31417,"description":"T315, UT315","createdAt":"2026-06-29T16:19:42.424Z","updatedAt":"2026-06-29T16:20:32.385Z"},{"id":"DAMDU","name":"DAMDU","type":"WAYPOINT","lat":-4.51306,"lon":-71.895,"description":null,"createdAt":"2026-06-29T16:19:42.425Z","updatedAt":"2026-06-29T16:19:42.425Z"},{"id":"DARKI","name":"DARKI","type":"WAYPOINT","lat":-13.45139,"lon":-72.87306,"description":"T319, UM668","createdAt":"2026-06-29T16:19:42.425Z","updatedAt":"2026-06-29T16:20:32.386Z"},{"id":"DIKOS","name":"DIKOS","type":"WAYPOINT","lat":-14.79972,"lon":-74.15306,"description":null,"createdAt":"2026-06-29T16:19:42.426Z","updatedAt":"2026-06-29T16:19:42.426Z"},{"id":"DOBNI","name":"DOBNI","type":"WAYPOINT","lat":-15.71861,"lon":-69.38167,"description":null,"createdAt":"2026-06-29T16:19:42.427Z","updatedAt":"2026-06-29T16:19:42.427Z"},{"id":"EKUVA","name":"EKUVA","type":"WAYPOINT","lat":-13.73333,"lon":-75.15972,"description":"T333, UM548, UM793, UT333","createdAt":"2026-06-29T16:19:42.428Z","updatedAt":"2026-06-29T16:20:32.390Z"},{"id":"ENPAP","name":"ENPAP","type":"WAYPOINT","lat":-8.48944,"lon":-76.55,"description":null,"createdAt":"2026-06-29T16:19:42.428Z","updatedAt":"2026-06-29T16:19:42.428Z"},{"id":"ENSUB","name":"ENSUB","type":"WAYPOINT","lat":-8.95639,"lon":-73.85389,"description":null,"createdAt":"2026-06-29T16:19:42.429Z","updatedAt":"2026-06-29T16:19:42.429Z"},{"id":"ERINI","name":"ERINI","type":"WAYPOINT","lat":-9.17361,"lon":-74.09778,"description":null,"createdAt":"2026-06-29T16:19:42.429Z","updatedAt":"2026-06-29T16:19:42.429Z"},{"id":"ESDIN","name":"ESDIN","type":"WAYPOINT","lat":-18.35,"lon":-80.20333,"description":"UL401","createdAt":"2026-06-29T16:19:42.430Z","updatedAt":"2026-06-29T16:20:32.390Z"},{"id":"ESKOM","name":"ESKOM","type":"WAYPOINT","lat":-10.25194,"lon":-72.23472,"description":null,"createdAt":"2026-06-29T16:19:42.430Z","updatedAt":"2026-06-29T16:19:42.430Z"},{"id":"ESOGO","name":"ESOGO","type":"WAYPOINT","lat":-15.06917,"lon":-74.34222,"description":null,"createdAt":"2026-06-29T16:19:42.431Z","updatedAt":"2026-06-29T16:19:42.431Z"},{"id":"EVLAR","name":"EVLAR","type":"WAYPOINT","lat":-16.61028,"lon":-70.72333,"description":null,"createdAt":"2026-06-29T16:19:42.432Z","updatedAt":"2026-06-29T16:19:42.432Z"},{"id":"EVLEP","name":"EVLEP","type":"WAYPOINT","lat":-16.56528,"lon":-73.9475,"description":null,"createdAt":"2026-06-29T16:19:42.432Z","updatedAt":"2026-06-29T16:19:42.432Z"},{"id":"GAVAR","name":"GAVAR","type":"WAYPOINT","lat":-16.9725,"lon":-71.11417,"description":"UV12, V12","createdAt":"2026-06-29T16:19:42.433Z","updatedAt":"2026-06-29T16:20:32.392Z"},{"id":"GAXUN","name":"GAXUN","type":"WAYPOINT","lat":-13.1,"lon":-72.78583,"description":null,"createdAt":"2026-06-29T16:19:42.434Z","updatedAt":"2026-06-29T16:19:42.434Z"},{"id":"GELVO","name":"GELVO","type":"WAYPOINT","lat":-3.80111,"lon":-74.7175,"description":null,"createdAt":"2026-06-29T16:19:42.434Z","updatedAt":"2026-06-29T16:19:42.434Z"},{"id":"ILMUX","name":"ILMUX","type":"WAYPOINT","lat":-2.46194,"lon":-72.84889,"description":null,"createdAt":"2026-06-29T16:19:42.435Z","updatedAt":"2026-06-29T16:19:42.435Z"},{"id":"ILNAM","name":"ILNAM","type":"WAYPOINT","lat":-9.52194,"lon":-72.18556,"description":null,"createdAt":"2026-06-29T16:19:42.435Z","updatedAt":"2026-06-29T16:19:42.435Z"},{"id":"ILROL","name":"ILROL","type":"WAYPOINT","lat":-10.51389,"lon":-77.29722,"description":null,"createdAt":"2026-06-29T16:19:42.436Z","updatedAt":"2026-06-29T16:19:42.436Z"},{"id":"ILVOS","name":"ILVOS","type":"WAYPOINT","lat":-10,"lon":-84.42028,"description":null,"createdAt":"2026-06-29T16:19:42.436Z","updatedAt":"2026-06-29T16:19:42.436Z"},{"id":"IRESO","name":"IRESO","type":"WAYPOINT","lat":-11.37472,"lon":-75.46139,"description":null,"createdAt":"2026-06-29T16:19:42.437Z","updatedAt":"2026-06-29T16:19:42.437Z"},{"id":"ISIDI","name":"ISIDI","type":"WAYPOINT","lat":-4.68389,"lon":-72.08861,"description":null,"createdAt":"2026-06-29T16:19:42.437Z","updatedAt":"2026-06-29T16:19:42.437Z"},{"id":"ISLOD","name":"ISLOD","type":"WAYPOINT","lat":-17.50583,"lon":-70.5325,"description":null,"createdAt":"2026-06-29T16:19:42.438Z","updatedAt":"2026-06-29T16:19:42.438Z"},{"id":"ISREN","name":"ISREN","type":"WAYPOINT","lat":-9.45056,"lon":-78.67667,"description":"UL308, UL312, UL344, UL780, UM542","createdAt":"2026-06-29T16:19:42.438Z","updatedAt":"2026-06-29T16:20:32.415Z"},{"id":"ISRES","name":"ISRES","type":"WAYPOINT","lat":-6.67194,"lon":-77.18861,"description":null,"createdAt":"2026-06-29T16:19:42.439Z","updatedAt":"2026-06-29T16:19:42.439Z"},{"id":"ITALU","name":"ITALU","type":"WAYPOINT","lat":-5.49889,"lon":-81.57667,"description":null,"createdAt":"2026-06-29T16:19:42.439Z","updatedAt":"2026-06-29T16:19:42.439Z"},{"id":"ITARA","name":"ITARA","type":"WAYPOINT","lat":-12.79417,"lon":-74.11528,"description":null,"createdAt":"2026-06-29T16:19:42.440Z","updatedAt":"2026-06-29T16:19:42.440Z"},{"id":"KABAG","name":"KABAG","type":"WAYPOINT","lat":-2.85778,"lon":-77.40972,"description":null,"createdAt":"2026-06-29T16:19:42.440Z","updatedAt":"2026-06-29T16:19:42.440Z"},{"id":"KAMAK","name":"KAMAK","type":"WAYPOINT","lat":-15.73194,"lon":-72.10556,"description":null,"createdAt":"2026-06-29T16:19:42.441Z","updatedAt":"2026-06-29T16:19:42.441Z"},{"id":"KEVES","name":"KEVES","type":"WAYPOINT","lat":-14.67028,"lon":-69.89083,"description":null,"createdAt":"2026-06-29T16:19:42.441Z","updatedAt":"2026-06-29T16:19:42.441Z"},{"id":"KOKRO","name":"KOKRO","type":"WAYPOINT","lat":-3.79778,"lon":-74.15139,"description":null,"createdAt":"2026-06-29T16:19:42.442Z","updatedAt":"2026-06-29T16:19:42.442Z"},{"id":"KOLKA","name":"KOLKA","type":"WAYPOINT","lat":-15.68139,"lon":-71.99361,"description":null,"createdAt":"2026-06-29T16:19:42.443Z","updatedAt":"2026-06-29T16:19:42.443Z"},{"id":"KOMGO","name":"KOMGO","type":"WAYPOINT","lat":-10.30639,"lon":-77.78389,"description":null,"createdAt":"2026-06-29T16:19:42.444Z","updatedAt":"2026-06-29T16:19:42.444Z"},{"id":"KOMLA","name":"KOMLA","type":"WAYPOINT","lat":-5.25333,"lon":-79.64861,"description":null,"createdAt":"2026-06-29T16:19:42.444Z","updatedAt":"2026-06-29T16:19:42.444Z"},{"id":"KOMPA","name":"KOMPA","type":"WAYPOINT","lat":-16.475,"lon":-69,"description":null,"createdAt":"2026-06-29T16:19:42.445Z","updatedAt":"2026-06-29T16:19:42.445Z"},{"id":"KOSKO","name":"KOSKO","type":"WAYPOINT","lat":-13.54194,"lon":-75.5325,"description":"T334, UT222, UT334","createdAt":"2026-06-29T16:19:42.445Z","updatedAt":"2026-06-29T16:20:32.417Z"},{"id":"KOTKU","name":"KOTKU","type":"WAYPOINT","lat":-6.97556,"lon":-75.34194,"description":null,"createdAt":"2026-06-29T16:19:42.446Z","updatedAt":"2026-06-29T16:19:42.446Z"},{"id":"KULIS","name":"KULIS","type":"WAYPOINT","lat":-13.47722,"lon":-74.95111,"description":null,"createdAt":"2026-06-29T16:19:42.447Z","updatedAt":"2026-06-29T16:19:42.447Z"},{"id":"KUMET","name":"KUMET","type":"WAYPOINT","lat":-3.08306,"lon":-77.93667,"description":null,"createdAt":"2026-06-29T16:19:42.447Z","updatedAt":"2026-06-29T16:19:42.447Z"},{"id":"LITOT","name":"LITOT","type":"WAYPOINT","lat":-14.79333,"lon":-71.81472,"description":null,"createdAt":"2026-06-29T16:19:42.448Z","updatedAt":"2026-06-29T16:19:42.448Z"},{"id":"LIVAT","name":"LIVAT","type":"WAYPOINT","lat":-10.58333,"lon":-73.76972,"description":"T242, T244","createdAt":"2026-06-29T16:19:42.448Z","updatedAt":"2026-06-29T16:20:32.417Z"},{"id":"LIXIT","name":"LIXIT","type":"WAYPOINT","lat":-13.41472,"lon":-75.09694,"description":null,"createdAt":"2026-06-29T16:19:42.449Z","updatedAt":"2026-06-29T16:19:42.449Z"},{"id":"LOBOT","name":"LOBOT","type":"WAYPOINT","lat":-2.94222,"lon":-77.66111,"description":null,"createdAt":"2026-06-29T16:19:42.449Z","updatedAt":"2026-06-29T16:19:42.449Z"},{"id":"LOMOL","name":"LOMOL","type":"WAYPOINT","lat":-12.75083,"lon":-71.21972,"description":"T332, UL300, UT332","createdAt":"2026-06-29T16:19:42.450Z","updatedAt":"2026-06-29T16:20:32.419Z"},{"id":"LUVSO","name":"LUVSO","type":"WAYPOINT","lat":-9.49694,"lon":-75.66806,"description":null,"createdAt":"2026-06-29T16:19:42.451Z","updatedAt":"2026-06-29T16:19:42.451Z"},{"id":"MANDO","name":"MANDO","type":"WAYPOINT","lat":-4.23139,"lon":-80.38833,"description":null,"createdAt":"2026-06-29T16:19:42.451Z","updatedAt":"2026-06-29T16:19:42.451Z"},{"id":"MARBA","name":"MARBA","type":"WAYPOINT","lat":-7.14,"lon":-78.49056,"description":null,"createdAt":"2026-06-29T16:19:42.452Z","updatedAt":"2026-06-29T16:19:42.452Z"},{"id":"MASPO","name":"MASPO","type":"WAYPOINT","lat":-3.07972,"lon":-76.06944,"description":null,"createdAt":"2026-06-29T16:19:42.452Z","updatedAt":"2026-06-29T16:19:42.452Z"},{"id":"MELIX","name":"MELIX","type":"WAYPOINT","lat":-6.50444,"lon":-79.00917,"description":"V3","createdAt":"2026-06-29T16:19:42.453Z","updatedAt":"2026-06-29T16:20:32.419Z"},{"id":"MEXUR","name":"MEXUR","type":"WAYPOINT","lat":-13.1675,"lon":-75.67028,"description":"UM415","createdAt":"2026-06-29T16:19:42.454Z","updatedAt":"2026-06-29T16:20:32.420Z"},{"id":"MIPAS","name":"MIPAS","type":"WAYPOINT","lat":-8.2425,"lon":-79.41833,"description":"UM542","createdAt":"2026-06-29T16:19:42.454Z","updatedAt":"2026-06-29T16:20:32.407Z"},{"id":"MOXES","name":"MOXES","type":"WAYPOINT","lat":-14.27472,"lon":-77.41778,"description":null,"createdAt":"2026-06-29T16:19:42.455Z","updatedAt":"2026-06-29T16:19:42.455Z"},{"id":"MOXOV","name":"MOXOV","type":"WAYPOINT","lat":-7.24111,"lon":-75.75,"description":null,"createdAt":"2026-06-29T16:19:42.455Z","updatedAt":"2026-06-29T16:19:42.455Z"},{"id":"MUBIN","name":"MUBIN","type":"WAYPOINT","lat":-13.40639,"lon":-69.48278,"description":"UV14, V14","createdAt":"2026-06-29T16:19:42.456Z","updatedAt":"2026-06-29T16:20:32.421Z"},{"id":"MULMA","name":"MULMA","type":"WAYPOINT","lat":-8.83944,"lon":-73.73583,"description":"T335, UM527, UT335","createdAt":"2026-06-29T16:19:42.456Z","updatedAt":"2026-06-29T16:20:32.406Z"},{"id":"MULON","name":"MULON","type":"WAYPOINT","lat":-5.73944,"lon":-81.88972,"description":null,"createdAt":"2026-06-29T16:19:42.457Z","updatedAt":"2026-06-29T16:19:42.457Z"},{"id":"NAXUS","name":"NAXUS","type":"WAYPOINT","lat":-8.03028,"lon":-78.29306,"description":null,"createdAt":"2026-06-29T16:19:42.458Z","updatedAt":"2026-06-29T16:19:42.458Z"},{"id":"NENER","name":"NENER","type":"WAYPOINT","lat":-8.44778,"lon":-76.78778,"description":"UL342","createdAt":"2026-06-29T16:19:42.459Z","updatedAt":"2026-06-29T16:20:32.408Z"},{"id":"NILSA","name":"NILSA","type":"WAYPOINT","lat":-9.64694,"lon":-73.815,"description":"UL306, UP408","createdAt":"2026-06-29T16:19:42.460Z","updatedAt":"2026-06-29T16:20:32.409Z"},{"id":"NUXON","name":"NUXON","type":"WAYPOINT","lat":-15.06417,"lon":-70.90611,"description":"UV18","createdAt":"2026-06-29T16:19:42.460Z","updatedAt":"2026-06-29T16:20:32.421Z"},{"id":"NUXUM","name":"NUXUM","type":"WAYPOINT","lat":-9.135,"lon":-72.95639,"description":null,"createdAt":"2026-06-29T16:19:42.461Z","updatedAt":"2026-06-29T16:19:42.461Z"},{"id":"OBLIR","name":"OBLIR","type":"WAYPOINT","lat":-14.145,"lon":-68.855,"description":null,"createdAt":"2026-06-29T16:19:42.461Z","updatedAt":"2026-06-29T16:19:42.461Z"},{"id":"OGMAS","name":"OGMAS","type":"WAYPOINT","lat":-16.38556,"lon":-70.77111,"description":"UL300, UM793","createdAt":"2026-06-29T16:19:42.461Z","updatedAt":"2026-06-29T16:20:32.409Z"},{"id":"OKASO","name":"OKASO","type":"WAYPOINT","lat":-5.14444,"lon":-80.97,"description":null,"createdAt":"2026-06-29T16:19:42.462Z","updatedAt":"2026-06-29T16:19:42.462Z"},{"id":"OPKUL","name":"OPKUL","type":"WAYPOINT","lat":-15.10944,"lon":-71.17361,"description":"UL300, UM415","createdAt":"2026-06-29T16:19:42.463Z","updatedAt":"2026-06-29T16:20:32.422Z"},{"id":"OPROS","name":"OPROS","type":"WAYPOINT","lat":-11.39472,"lon":-76.47917,"description":"T315, T317, T325, UL306, UM527","createdAt":"2026-06-29T16:19:42.463Z","updatedAt":"2026-06-29T16:20:32.410Z"},{"id":"OPTOP","name":"OPTOP","type":"WAYPOINT","lat":-14.07639,"lon":-69.24361,"description":null,"createdAt":"2026-06-29T16:19:42.464Z","updatedAt":"2026-06-29T16:19:42.464Z"},{"id":"OSORA","name":"OSORA","type":"WAYPOINT","lat":-5.71611,"lon":-72.94278,"description":null,"createdAt":"2026-06-29T16:19:42.464Z","updatedAt":"2026-06-29T16:19:42.464Z"},{"id":"PABOB","name":"PABOB","type":"WAYPOINT","lat":-3.4,"lon":-87.575,"description":null,"createdAt":"2026-06-29T16:19:42.465Z","updatedAt":"2026-06-29T16:19:42.465Z"},{"id":"PADIS","name":"PADIS","type":"WAYPOINT","lat":-11.18778,"lon":-76.58139,"description":"T313, UT313","createdAt":"2026-06-29T16:19:42.465Z","updatedAt":"2026-06-29T16:20:32.423Z"},{"id":"PAKOL","name":"PAKOL","type":"WAYPOINT","lat":-12.745,"lon":-75.96361,"description":null,"createdAt":"2026-06-29T16:19:42.466Z","updatedAt":"2026-06-29T16:19:42.466Z"},{"id":"AND","name":"ANDAHUAYLAS","type":"NAVAID","lat":-13.71417,"lon":-73.37778,"description":"VOR/DME 114.30 MHz","createdAt":"2026-06-29T16:19:42.466Z","updatedAt":"2026-06-29T16:19:42.466Z"},{"id":"OAS","name":"ANDOAS","type":"NAVAID","lat":-2.78944,"lon":-76.4775,"description":"VOR/DME 116.80 MHz","createdAt":"2026-06-29T16:19:42.467Z","updatedAt":"2026-06-29T16:19:42.467Z"},{"id":"AQP","name":"AREQUIPA","type":"NAVAID","lat":-16.33917,"lon":-71.59722,"description":"VOR/DME 113.70 MHz","createdAt":"2026-06-29T16:19:42.467Z","updatedAt":"2026-06-29T16:19:42.467Z"},{"id":"ARI","name":"ARICA","type":"NAVAID","lat":-18.36944,"lon":-70.34639,"description":"VOR/DME 116.50 MHz","createdAt":"2026-06-29T16:19:42.468Z","updatedAt":"2026-06-29T16:19:42.468Z"},{"id":"POY","name":"CHACHAPOYAS","type":"NAVAID","lat":-6.20056,"lon":-77.85972,"description":"VOR/DME 115.10 MHz","createdAt":"2026-06-29T16:19:42.468Z","updatedAt":"2026-06-29T16:19:42.468Z"},{"id":"CLA","name":"CHICLAYO","type":"NAVAID","lat":-6.71722,"lon":-79.81917,"description":"VOR/DME 114.90 MHz","createdAt":"2026-06-29T16:19:42.469Z","updatedAt":"2026-06-29T16:19:42.469Z"},{"id":"BTE","name":"CHIMBOTE","type":"NAVAID","lat":-9.1475,"lon":-78.52194,"description":"VOR 112.50 MHz","createdAt":"2026-06-29T16:19:42.470Z","updatedAt":"2026-06-29T16:19:42.470Z"},{"id":"ZCO","name":"CUSCO","type":"NAVAID","lat":-13.51917,"lon":-72.01,"description":"VOR/DME 114.90 MHz","createdAt":"2026-06-29T16:19:42.470Z","updatedAt":"2026-06-29T16:19:42.470Z"},{"id":"ILO","name":"ILO","type":"NAVAID","lat":-17.69111,"lon":-71.35056,"description":"VOR 112.50 MHz","createdAt":"2026-06-29T16:19:42.471Z","updatedAt":"2026-06-29T16:19:42.471Z"},{"id":"IQT","name":"IQUITOS","type":"NAVAID","lat":-3.7925,"lon":-73.31778,"description":"VOR/DME 116.50 MHz","createdAt":"2026-06-29T16:19:42.471Z","updatedAt":"2026-06-29T16:19:42.471Z"},{"id":"JCL","name":"JORGE CHAVEZ","type":"NAVAID","lat":-12.03972,"lon":-77.10556,"description":"DVOR/DME 116.90 MHz","createdAt":"2026-06-29T16:19:42.472Z","updatedAt":"2026-06-29T16:19:42.472Z"},{"id":"JUL","name":"JULIACA","type":"NAVAID","lat":-15.46806,"lon":-70.15111,"description":"VOR/DME 115.50 MHz","createdAt":"2026-06-29T16:19:42.472Z","updatedAt":"2026-06-29T16:19:42.472Z"},{"id":"LPA","name":"LAS PALMAS","type":"NAVAID","lat":-12.15583,"lon":-76.99944,"description":"DVOR/DME 113.30 MHz","createdAt":"2026-06-29T16:19:42.473Z","updatedAt":"2026-06-29T16:19:42.473Z"},{"id":"LET","name":"LETICIA","type":"NAVAID","lat":-4.195,"lon":-69.94,"description":"DVOR/DME 117.50 MHz","createdAt":"2026-06-29T16:19:42.473Z","updatedAt":"2026-06-29T16:19:42.473Z"},{"id":"MLV","name":"MALVINAS","type":"NAVAID","lat":-11.85833,"lon":-72.93778,"description":"VOR/DME 117.20 MHz","createdAt":"2026-06-29T16:19:42.474Z","updatedAt":"2026-06-29T16:19:42.474Z"},{"id":"SCO","name":"PISCO","type":"NAVAID","lat":-13.73861,"lon":-76.21278,"description":"VOR/DME 114.10 MHz","createdAt":"2026-06-29T16:19:42.475Z","updatedAt":"2026-06-29T16:19:42.475Z"},{"id":"URA","name":"PIURA","type":"NAVAID","lat":-5.21,"lon":-80.61611,"description":"VOR/DME 117.70 MHz","createdAt":"2026-06-29T16:19:42.475Z","updatedAt":"2026-06-29T16:19:42.475Z"},{"id":"PZA","name":"PTO ESPERANZA","type":"NAVAID","lat":-9.76917,"lon":-70.705,"description":"VOR 113.90 MHz","createdAt":"2026-06-29T16:19:42.476Z","updatedAt":"2026-06-29T16:19:42.476Z"},{"id":"PUL","name":"PUCALLPA","type":"NAVAID","lat":-8.37583,"lon":-74.57222,"description":"VOR/DME 116.70 MHz","createdAt":"2026-06-29T16:19:42.476Z","updatedAt":"2026-06-29T16:19:42.476Z"},{"id":"PLG","name":"PUERTO LEGUIZAMO","type":"NAVAID","lat":-0.17861,"lon":-74.77556,"description":"VOR/DME 112.80 MHz","createdAt":"2026-06-29T16:19:42.477Z","updatedAt":"2026-06-29T16:19:42.477Z"},{"id":"PDO","name":"PUERTO MALDONADO","type":"NAVAID","lat":-12.60778,"lon":-69.22722,"description":"VOR/DME 116.10 MHz","createdAt":"2026-06-29T16:19:42.477Z","updatedAt":"2026-06-29T16:19:42.477Z"},{"id":"SLS","name":"SALINAS","type":"NAVAID","lat":-11.2875,"lon":-77.5625,"description":"DVOR/DME 114.70 MHz","createdAt":"2026-06-29T16:19:42.478Z","updatedAt":"2026-06-29T16:19:42.478Z"},{"id":"SRV","name":"SANTA ROSA","type":"NAVAID","lat":-3.44722,"lon":-80.00944,"description":"VOR 116.60 MHz","createdAt":"2026-06-29T16:19:42.478Z","updatedAt":"2026-06-29T16:19:42.478Z"},{"id":"UAS","name":"SIHUAS","type":"NAVAID","lat":-16.37111,"lon":-72.13361,"description":"VOR 113.50 MHz","createdAt":"2026-06-29T16:19:42.479Z","updatedAt":"2026-06-29T16:19:42.479Z"},{"id":"TCA","name":"TACNA","type":"NAVAID","lat":-18.05778,"lon":-70.27639,"description":"VOR/DME 116.80 MHz","createdAt":"2026-06-29T16:19:42.479Z","updatedAt":"2026-06-29T16:19:42.479Z"},{"id":"TAL","name":"TALARA","type":"NAVAID","lat":-4.58028,"lon":-81.2525,"description":"VOR 116.10 MHz","createdAt":"2026-06-29T16:19:42.480Z","updatedAt":"2026-06-29T16:19:42.480Z"},{"id":"TAP","name":"TARAPOTO","type":"NAVAID","lat":-6.65806,"lon":-76.35111,"description":"VOR/DME 115.50 MHz","createdAt":"2026-06-29T16:19:42.480Z","updatedAt":"2026-06-29T16:19:42.480Z"},{"id":"TRO","name":"TROMPETEROS","type":"NAVAID","lat":-3.80278,"lon":-75.05083,"description":"VOR/DME 114.80 MHz","createdAt":"2026-06-29T16:19:42.480Z","updatedAt":"2026-06-29T16:19:42.480Z"},{"id":"TRU","name":"TRUJILLO","type":"NAVAID","lat":-8.0875,"lon":-79.1125,"description":"DVOR/DME 116.30 MHz","createdAt":"2026-06-29T16:19:42.481Z","updatedAt":"2026-06-29T16:19:42.481Z"},{"id":"BES","name":"TUMBES","type":"NAVAID","lat":-3.54444,"lon":-80.38917,"description":"VOR/DME 112.90 MHz","createdAt":"2026-06-29T16:19:42.481Z","updatedAt":"2026-06-29T16:19:42.481Z"},{"id":"URC","name":"URCOS","type":"NAVAID","lat":-13.64944,"lon":-71.58639,"description":"VOR/DME 115.60 MHz","createdAt":"2026-06-29T16:19:42.482Z","updatedAt":"2026-06-29T16:19:42.482Z"},{"id":"ANA","name":"CONTAMANA","type":"NAVAID","lat":-7.27,"lon":-75.03,"description":"Contamana VOR/DME","createdAt":"2026-06-29T16:20:31.695Z","updatedAt":"2026-06-29T16:20:31.695Z"},{"id":"TGM","name":"TINGO MARIA","type":"NAVAID","lat":-9.15,"lon":-75.95,"description":"Tingo María VOR/DME","createdAt":"2026-06-29T16:20:31.698Z","updatedAt":"2026-06-29T16:20:31.698Z"},{"id":"HUZ","name":"HUANUCO","type":"NAVAID","lat":-9.88,"lon":-76.22,"description":"Huánuco VOR/DME","createdAt":"2026-06-29T16:20:31.700Z","updatedAt":"2026-06-29T16:20:31.700Z"},{"id":"JAU","name":"JAUJA","type":"NAVAID","lat":-11.78,"lon":-75.5,"description":"Jauja VOR/DME","createdAt":"2026-06-29T16:20:31.702Z","updatedAt":"2026-06-29T16:20:31.702Z"},{"id":"PIU","name":"PIURA","type":"NAVAID","lat":-5.21,"lon":-80.62,"description":"Piura VOR/DME","createdAt":"2026-06-29T16:20:31.703Z","updatedAt":"2026-06-29T16:20:31.703Z"},{"id":"DESAD","name":"DESAD","type":"WAYPOINT","lat":-17,"lon":-70.3,"description":"RNAV waypoint near Juliaca","createdAt":"2026-06-29T16:20:31.705Z","updatedAt":"2026-06-29T16:20:31.705Z"},{"id":"TUM","name":"TUMBES","type":"NAVAID","lat":-3.55,"lon":-80.3833,"description":"Tumbes VOR/DME","createdAt":"2026-06-29T16:20:31.707Z","updatedAt":"2026-06-29T16:20:31.707Z"},{"id":"TAC","name":"TACNA","type":"NAVAID","lat":-18.06,"lon":-70.3,"description":"Tacna VOR/DME","createdAt":"2026-06-29T16:20:31.709Z","updatedAt":"2026-06-29T16:20:31.709Z"},{"id":"AKTUK","name":"AKTUK","type":"WAYPOINT","lat":-6.86528,"lon":-80.11139,"description":"UM542","createdAt":"2026-06-29T16:20:32.370Z","updatedAt":"2026-06-29T16:20:32.370Z"},{"id":"ASUPA","name":"ASUPA","type":"WAYPOINT","lat":-15.87694,"lon":-72.54056,"description":"UT222","createdAt":"2026-06-29T16:20:32.378Z","updatedAt":"2026-06-29T16:20:32.378Z"},{"id":"BOLIM","name":"BOLIM","type":"WAYPOINT","lat":-2.94139,"lon":-76.00111,"description":"T230","createdAt":"2026-06-29T16:20:32.381Z","updatedAt":"2026-06-29T16:20:32.381Z"},{"id":"BOMEL","name":"BOMEL","type":"WAYPOINT","lat":-14.52639,"lon":-73.96167,"description":"UM548, UM793","createdAt":"2026-06-29T16:20:32.382Z","updatedAt":"2026-06-29T16:20:32.382Z"},{"id":"LETICIA","name":"LETICIA","type":"WAYPOINT","lat":-4.195,"lon":-69.94,"description":"VOR/DME LET","createdAt":"2026-06-29T16:20:32.399Z","updatedAt":"2026-06-29T16:20:32.399Z"},{"id":"PIURA","name":"PIURA","type":"WAYPOINT","lat":-5.21,"lon":-80.61611,"description":"VOR/DME URA","createdAt":"2026-06-29T16:20:32.404Z","updatedAt":"2026-06-29T16:20:32.404Z"},{"id":"PUGUP","name":"PUGUP","type":"WAYPOINT","lat":-7.43694,"lon":-75.08917,"description":"UM414, UP408","createdAt":"2026-06-29T16:20:32.411Z","updatedAt":"2026-06-29T16:20:32.411Z"},{"id":"REBAN","name":"REBAN","type":"WAYPOINT","lat":-8.44694,"lon":-79.70611,"description":"UL312, UL344","createdAt":"2026-06-29T16:20:32.411Z","updatedAt":"2026-06-29T16:20:32.411Z"},{"id":"SIGIX","name":"SIGIX","type":"WAYPOINT","lat":-7.18528,"lon":-71.99889,"description":"UM776","createdAt":"2026-06-29T16:20:32.413Z","updatedAt":"2026-06-29T16:20:32.413Z"},{"id":"TOKAN","name":"TOKAN","type":"WAYPOINT","lat":-9.33806,"lon":-76.63417,"description":"T311, UL305, UP776","createdAt":"2026-06-29T16:20:32.415Z","updatedAt":"2026-06-29T16:20:32.415Z"},{"id":"POSKA","name":"POSKA","type":"WAYPOINT","lat":-5.10639,"lon":-72.81194,"description":"UM776 - Boundary Point","createdAt":"2026-06-29T16:20:32.423Z","updatedAt":"2026-06-29T16:20:32.423Z"},{"id":"PUMAS","name":"PUMAS","type":"WAYPOINT","lat":-11.35694,"lon":-73.30778,"description":"T242, T317, UT317","createdAt":"2026-06-29T16:20:32.424Z","updatedAt":"2026-06-29T16:20:32.424Z"},{"id":"REKEM","name":"REKEM","type":"WAYPOINT","lat":-13.055,"lon":-75.62722,"description":"T246, T336, UT336","createdAt":"2026-06-29T16:20:32.424Z","updatedAt":"2026-06-29T16:20:32.424Z"},{"id":"RAXUN","name":"RAXUN","type":"WAYPOINT","lat":-14.44833,"lon":-69.08472,"description":"UM776","createdAt":"2026-06-29T16:20:32.425Z","updatedAt":"2026-06-29T16:20:32.425Z"},{"id":"SIMEL","name":"SIMEL","type":"WAYPOINT","lat":-16.33861,"lon":-72.38111,"description":"T337, UT323, UT337","createdAt":"2026-06-29T16:20:32.426Z","updatedAt":"2026-06-29T16:20:32.426Z"},{"id":"TEMOR","name":"TEMOR","type":"WAYPOINT","lat":-7.41306,"lon":-72.54722,"description":"UL300","createdAt":"2026-06-29T16:20:32.426Z","updatedAt":"2026-06-29T16:20:32.426Z"},{"id":"TITVU","name":"TITVU","type":"WAYPOINT","lat":-12.09056,"lon":-69.89611,"description":"T240","createdAt":"2026-06-29T16:20:32.427Z","updatedAt":"2026-06-29T16:20:32.427Z"}]